City_ID,City,Country,Max Temp,Current Description,Lat,Lng,Hotel Name
5,Boke,GN,80.06,overcast clouds,10.9409,-14.2967,Hôtel Rio Nunez - Boké
7,Sinnamary,GF,83.26,broken clouds,5.3833,-52.95,ALETHEIA Appartement Sinnamary
14,Avarua,CK,75.25,scattered clouds,-21.2078,-159.775,Paradise Inn
17,Port Keats,AU,80.26,broken clouds,-14.25,129.55,TDC Village (Hundred Man Camp)
20,Maputo,MZ,80.28,broken clouds,-25.9653,32.5892,Pestana Rovuma
30,Santa Lucia,ES,75.76,few clouds,27.9117,-15.5407,Las Tirajanas
33,Yanai,JP,77.02,clear sky,33.9667,132.1167,Yanai City Hotel
35,Bac Lieu,VN,81.55,overcast clouds,9.285,105.7244,Khách sạn Sài Gòn Bạc Liêu
41,Barao De Melgaco,BR,84.72,few clouds,-16.1944,-55.9675,Tuiuiu Pantanal Hotel
45,Cap Malheureux,MU,76.46,broken clouds,-19.9842,57.6142,Pereybere Hotel & Spa
53,Saint-Joseph,RE,77.38,scattered clouds,-21.3667,55.6167,"""Plantation Bed and Breakfast"
63,Srikakulam,IN,83.01,clear sky,18.3,83.9,Sriram residency
65,Alyangula,AU,80.47,scattered clouds,-13.8483,136.4192,Groote Eylandt Lodge
69,Asyut,EG,86.18,clear sky,27.181,31.1837,Florence Hotel Assiut
70,Atuona,PF,77.65,broken clouds,-9.8,-139.0333,Villa Enata
71,Hithadhoo,MV,82.94,scattered clouds,-0.6,73.0833,Scoop Guest House
78,Warri,NG,83.43,overcast clouds,5.5167,5.75,BON Hotel Delta
80,Panalingaan,PH,81.34,overcast clouds,8.7842,117.4231,I Love Panalingaan View Deck
87,Port-Gentil,GA,82.36,light rain,-0.7193,8.7815,Fengshui Residence
88,Le Port,RE,78.8,scattered clouds,-20.9373,55.2919,KORBEY D'OR OUEST
89,Mana,GF,84.33,broken clouds,5.6592,-53.7767,LE SAMANA
98,Monkey Bay,MW,82.08,few clouds,-14.0728,34.9201,Monkey Bay Beach Lodge
104,Buchanan,LR,85.96,light rain,5.8808,-10.0467,Kamaneahn Hotel Inc
105,Saint-Philippe,RE,78.39,few clouds,-21.3585,55.7679,"Chambres d'hôte ""La Trinité"""
112,Butaritari,KI,80.22,moderate rain,3.0707,172.7902,Isles Sunset Lodge
115,Narasannapeta,IN,82.65,clear sky,18.4167,84.05,G.lingaraju home
118,Georgetown,MY,80.89,scattered clouds,5.4112,100.3354,Cititel Penang
122,Luwuk,ID,77.63,overcast clouds,-0.9516,122.7875,Hotel Santika Luwuk
126,Pedernales,DO,80.89,few clouds,18.0384,-71.744,Hotel Costa Marina
131,Lata,PT,75.49,overcast clouds,40.1629,-8.3327,Casa Maquia
132,Harper,LR,80.92,light rain,4.375,-7.7169,Screensaver
133,Owando,CG,88.9,overcast clouds,-0.4819,15.8999,Exaunel Hotel Owando
137,Bull Savanna,JM,76.35,clear sky,17.8868,-77.5902,Big Red's
139,Karratha,AU,75.33,clear sky,-20.7377,116.8463,ibis Styles Karratha
140,San Patricio,US,76.89,heavy intensity rain,28.017,-97.5169,"Motel 6 Sinton, TX"
142,Vila Franca Do Campo,PT,76.19,scattered clouds,37.7167,-25.4333,Pestana Bahia Praia
143,Lingao,CN,82.76,light rain,19.9103,109.6859,Lingao Ditai Inn
145,Ponta Do Sol,PT,76.12,clear sky,32.6667,-17.1,Hotel do Campo
146,Migori,KE,82.4,broken clouds,-1.0634,34.4731,"Calabash Hotel, Migori"
147,Labuhan,ID,84.18,overcast clouds,-6.8844,112.2051,PT PPI Lamongan Tambak C
152,Cayenne,GF,86.09,clear sky,4.9333,-52.3333,Hôtel Le Dronmi
154,Prieska,ZA,85.41,broken clouds,-29.6641,22.7474,Avenue GuestHouse
155,Kutum,SD,88.38,clear sky,14.2,24.6667,Dibbo areaمنطقة دبو
156,Saint-Georges,GD,83.88,scattered clouds,12.0564,-61.7485,Radisson Grenada Beach Resort
162,Bathsheba,BB,84.81,broken clouds,13.2167,-59.5167,Atlantis Hotel
164,El Limon,VE,75.0,broken clouds,10.3059,-67.6321,Campamento Valle Beraca
166,Manggar,ID,75.16,overcast clouds,-2.8833,108.2667,Guest Hotel
173,Bonoua,CI,80.22,light rain,5.2741,-3.595,Hotel Bon Samaritian
174,Cururupu,BR,85.28,broken clouds,-1.8283,-44.8683,POUSADA TRAVÉS'CIA
176,Ribeira Grande,PT,75.6,mist,38.5167,-28.7,Quinta da Meia Eira
179,Cabedelo,BR,81.27,few clouds,-6.9811,-34.8339,Hotel Pigalle
182,Banjar,ID,80.46,scattered clouds,-8.19,114.9675,The Hamsa Resort
189,Lakatoro,VU,77.88,moderate rain,-16.0999,167.4164,Lakatoro Palm Lodge
190,Urucui,BR,89.44,light rain,-7.2294,-44.5561,Hotel Premium Piauí
196,Ugoofaaru,MV,82.35,overcast clouds,5.6667,73.0,Ungoofaaru Inn
200,Cairns,AU,75.15,broken clouds,-16.9167,145.7667,Mantra Trilogy Cairns
204,Mahibadhoo,MV,82.92,scattered clouds,3.7833,72.9667,Omadhoo Inn
207,Lorengau,PG,78.17,overcast clouds,-2.0226,147.2712,Lorengau Harbourside Hotel
212,Caluquembe,AO,88.84,few clouds,-13.7833,14.6833,Hotel Kalukembe
215,Kangavar,IR,85.48,clear sky,34.5043,47.9653,محمد جوادرضایی
218,Trinidad,BO,76.98,smoke,-14.8333,-64.9,Hotel Piesta
222,Road Town,VG,82.99,few clouds,18.4167,-64.6167,"ZINGARA 76ft Catamaran, full crew-all included"
224,Kathu,TH,82.22,overcast clouds,7.9178,98.3332,Novotel Phuket Resort
225,Kimberley,ZA,78.49,thunderstorm,-28.7323,24.7623,Welgewandel Guesthouse
230,Oistins,BB,84.29,broken clouds,13.0667,-59.5333,Butterfly Beach Hotel
231,Praya,CV,84.74,few clouds,14.9215,-23.5087,LT Aparthotel
234,Tirumullaivasal,IN,85.3,overcast clouds,11.2333,79.8333,Almupaark complex
239,Lazaro Cardenas,MX,76.53,broken clouds,17.9583,-102.2,quinta antigua
245,Acapulco,MX,76.82,scattered clouds,16.8634,-99.8901,HS Hotsson Smart Acapulco
248,Ilula,TZ,81.19,broken clouds,-7.6766,36.0366,FM Lodge
249,Faanui,PF,78.62,clear sky,-16.4833,-151.75,Bora-Bora Pearl Beach Resort & Spa
258,Kavaratti,IN,81.75,overcast clouds,10.5669,72.642,Hotels in Lakshadweep Islands
259,Bubaque,GW,81.77,moderate rain,11.2833,-15.8333,"Casa Dora, Bubaque"
261,Lethem,GY,81.79,overcast clouds,3.3803,-59.7968,Savannah Inn
262,Tual,ID,81.12,broken clouds,-5.6667,132.75,Grand Vilia Hotel
264,Irece,BR,80.49,scattered clouds,-11.3042,-41.8558,RADAR INN HOTEL
266,Kaffrine,SN,85.89,broken clouds,14.1059,-15.5508,Beuleup counda motel
268,Maragogi,BR,78.94,scattered clouds,-9.0122,-35.2225,Salinas do Maragogi All Inclusive Resort
269,Agbor,NG,81.28,light rain,6.2518,6.1934,MIRAMAS HOTEL
270,Gigmoto,PH,81.81,overcast clouds,13.7796,124.39,Cj's Travellers Inn
271,Dawei,MM,80.13,overcast clouds,14.0833,98.2,Hotel Dawei
273,Kahului,US,77.02,overcast clouds,20.8947,-156.47,Maui Seaside Hotel
277,Mottola,IT,77.45,scattered clouds,40.6353,17.0353,Villaggio Vecchia Mottola
278,Porto Walter,BR,77.18,broken clouds,-8.2686,-72.7439,Secretaria de saúde
279,Gonaives,HT,78.4,clear sky,19.45,-72.6833,Vertières Doux Séjour
281,Victoria,HK,87.22,light rain,22.2855,114.1577,Mini Hotel Central
296,Mount Isa,AU,80.37,scattered clouds,-20.7333,139.5,ibis Styles Mt Isa Verona
297,Sao Jose Da Coroa Grande,BR,79.14,scattered clouds,-8.8978,-35.1478,Crôa Mares Hotel
298,Trairi,BR,86.5,broken clouds,-3.2778,-39.2689,janelas do mar
300,Maceio,BR,81.84,broken clouds,-9.6658,-35.7353,Poutur Pousada
304,Dingle,PH,76.86,overcast clouds,10.9995,122.6711,SEGAYA PROPERTY
306,Puerto Cabello,VE,81.36,overcast clouds,10.4731,-68.0125,Hotel Cumboto
308,Houma,US,77.0,overcast clouds,29.5958,-90.7195,Courtyard by Marriott Houma
314,Bodden Town,KY,82.92,few clouds,19.2833,-81.25,Will T Place
316,Kloulklubed,PW,77.5,overcast clouds,7.0419,134.2556,Storyboard Beach Resort
318,Zaria,NG,89.17,overcast clouds,11.1113,7.7227,Nubapoly Guest Inn
321,Veraval,IN,82.62,few clouds,20.9,70.3667,Lords Inn Somnath
322,Richards Bay,ZA,81.19,overcast clouds,-28.783,32.0377,BON Hotel Waterfront Richards Bay
328,Qixingtai,CN,79.77,light rain,30.4135,111.8874,Sunny Hotel
334,Nong Bua,TH,82.67,broken clouds,15.8646,100.5858,ลภัสรดารีสอร์ท
335,Yarada,IN,84.7,light rain,17.65,83.2667,Jeevan
336,Shaoguan,CN,83.05,light rain,24.8,113.5833,Shangcheng Hotel
339,Pasni,PK,77.68,heavy intensity rain,25.2631,63.471,Kashmiri Hotal
342,Sola,VU,79.11,overcast clouds,-13.8833,167.55,Leumerus Bungalows
344,Bambous Virieux,MU,76.21,broken clouds,-20.3428,57.7575,Casa Tia Villa
348,Mbaiki,CF,81.25,overcast clouds,3.8678,17.9892,Motel MBM
350,Nishihara,JP,82.45,scattered clouds,26.1842,127.7558,Minshuku Agaihama
357,Kavieng,PG,82.99,overcast clouds,-2.5744,150.7967,Nusa Island Retreat
359,Naze,JP,76.41,clear sky,28.3667,129.4833,オーベルジュ・アガルイ
367,Saint-Pierre,RE,78.48,broken clouds,-21.3393,55.4781,Lindsey Hôtel
368,Bandarbeyla,SO,83.73,few clouds,9.4942,50.8122,JABIR HOTEL
371,Mango,US,75.11,clear sky,27.9797,-82.3065,Hilton Garden Inn Tampa East/Brandon
372,Gizo,SB,82.42,overcast clouds,-8.103,156.8419,Imagination Island
376,Sao Filipe,CV,79.81,broken clouds,14.8961,-24.4956,Hotel Xaguate
377,Kudahuvadhoo,MV,83.16,broken clouds,2.6708,72.8944,Niyama Private Islands Maldives
379,Salalah,OM,86.09,broken clouds,17.0151,54.0924,HAMDAN PLAZA HOTEL SALALAH
383,Karad,IN,80.55,broken clouds,17.2833,74.2,Hotel Sugam Lodging
384,Itarema,BR,85.78,scattered clouds,-2.9248,-39.9167,"Sea Lounge! Bar, Club & Restaurant"
385,Dicabisagan,PH,80.2,broken clouds,17.0818,122.4157,Nancy Montanes Bernardo
386,Khutar,IN,84.25,broken clouds,28.2,80.2833,Nitesh Shukla ji LVWPL
389,Kieta,PG,78.6,overcast clouds,-6.2167,155.6333,Uruna Bay Retreat
391,Isangel,VU,75.2,overcast clouds,-19.55,169.2667,Tanna Lodge
393,Baracoa,CU,79.88,broken clouds,20.3467,-74.4958,Hostal Rio Miel
399,Bonthe,SL,85.48,overcast clouds,7.5264,-12.505,Bonthe Holiday Village
400,Faranah,GN,84.25,scattered clouds,10.0404,-10.7434,Chez mon oncle
401,Kroya,ID,77.23,light rain,-7.6331,109.2461,RUSTANTO Fam
404,Bocas Del Toro,PA,82.08,clear sky,9.3333,-82.25,Hotel Bocas del Toro
408,Flic En Flac,MU,76.51,few clouds,-20.2742,57.3631,Hilton Mauritius Resort & Spa
415,Vila Velha,BR,75.15,broken clouds,-20.3297,-40.2925,Quality Suites Vila Velha
418,Mahebourg,MU,76.24,broken clouds,-20.4081,57.7,Shandrani Beachcomber Resort & Spa
426,Along,IN,76.68,broken clouds,28.1667,94.7667,Hotel West
427,Haldia,IN,81.66,overcast clouds,22.0605,88.1097,Prayag Balaji Hotel
429,Kalmunai,LK,78.94,light rain,7.4167,81.8167,VS Villa
436,Alta Floresta,BR,77.59,broken clouds,-9.8756,-56.0861,Floresta Amazonica Hotel
438,Kununurra,AU,80.58,clear sky,-15.7667,128.7333,Hotel Kununurra
447,Paveh,IR,78.67,clear sky,35.0434,46.3565,اقامتگاه بوم‌گردی حسن ساعدی
456,Wanning,CN,80.06,clear sky,18.8003,110.3967,Paradise Hotel
458,Libreville,GA,80.62,light rain,0.3925,9.4537,Hotel Re-Ndama
459,Phangnga,TH,83.91,moderate rain,8.4509,98.5298,Sunimit Mansion
461,Jalu,LY,86.88,clear sky,29.0331,21.5482,صاحبة الفخامة
462,Nyangao,TZ,88.54,broken clouds,-10.3333,39.2833,MLIMANI LODGE & STATIONERY
463,Mahanoro,MG,78.8,scattered clouds,-19.9,48.8,BUNGALOW MAHAMANINA
465,Catanduva,BR,79.09,clear sky,-21.1378,-48.9728,Colonial Hotel
469,Bengkulu,ID,78.1,overcast clouds,-3.8004,102.2655,Grage Hotel Bengkulu
472,Port Blair,IN,82.11,broken clouds,11.6667,92.75,"Welcomhotel By ITC Hotels, Bay Island, Port Blair"
474,Padang,ID,80.65,light rain,-0.9492,100.3543,Mercure Padang
482,Chimore,BO,85.21,clear sky,-16.9833,-65.1333,Bichito
484,Contamana,PE,76.3,broken clouds,-7.3333,-75.0167,Shiringal Touristic Park
485,Makakilo City,US,77.32,overcast clouds,21.3469,-158.0858,Marriott's Ko Olina Beach Club
487,Quelimane,MZ,85.95,few clouds,-17.8786,36.8883,Hotel Flamingo
488,Touros,BR,83.3,clear sky,-5.1989,-35.4608,INN NEW HORIZON
489,Lahad Datu,MY,78.1,broken clouds,5.0268,118.327,The 27th House
492,Alenquer,BR,82.74,scattered clouds,-1.9417,-54.7383,Josilene Castro
493,Souillac,MU,76.35,broken clouds,-20.5167,57.5167,Shanti Maurice Resort & Spa
496,Lujiang,CN,77.05,moderate rain,31.2581,117.2817,GreenTree Inn Hefei Lujiang County Jinjie 1 Express Hotel
497,Puerto Escondido,MX,76.03,scattered clouds,15.85,-97.0667,Aldea del Bazar Hotel and Spa
502,Pemba,MZ,84.9,few clouds,-12.974,40.5178,Guesthouse Samotina
505,Grand Gaube,MU,76.37,broken clouds,-20.0064,57.6608,Veranda Paul et Virginie Hotel & Spa
511,Namatanai,PG,81.03,overcast clouds,-3.6667,152.4333,Seagulls Inn Namatani
513,Haimen,CN,82.29,scattered clouds,23.1935,116.6142,Jinghao Business Hotel
516,Matadi,CD,85.46,overcast clouds,-5.8167,13.45,Hotel Vivi Palace
522,Cuiaba,BR,84.13,few clouds,-15.5961,-56.0967,Getúllio Hotel
526,Ambon,ID,78.94,scattered clouds,-3.6954,128.1814,Swiss-Belhotel Ambon
527,Keti Bandar,PK,84.16,overcast clouds,24.1447,67.4497,Haji laloo memon house
531,Amuntai,ID,75.47,overcast clouds,-2.4177,115.2494,Hotel Balqis
534,Conceicao Da Barra,BR,81.45,scattered clouds,-18.5933,-39.7322,Cricaré Praia Hotel
542,Puerto Del Rosario,ES,89.28,clear sky,28.5004,-13.8627,Hotel JM Puerto del Rosario
543,Minjur,IN,89.62,broken clouds,13.2667,80.2667,Whitefield Integrated Residential Township
544,Cabrera,DO,75.33,scattered clouds,19.6426,-69.9049,Terramar Hotel
546,Nabire,ID,77.36,moderate rain,-3.3667,135.4833,Hotel Nusantara Nabire
548,Inhambane,MZ,80.33,scattered clouds,-23.865,35.3833,Oceano
549,Mwanza,TZ,86.05,scattered clouds,-2.5167,32.9,Gold Crest Hotel
551,Dhidhdhoo,MV,82.63,overcast clouds,6.8833,73.1,Dhidhoo beach
561,Varzea Da Palma,BR,87.19,clear sky,-17.5981,-44.7308,Casa Fernandes
565,Sao Miguel,BR,84.52,clear sky,-5.4667,-35.3667,Maracajaú Reef
568,Balabac,PH,82.67,overcast clouds,7.9868,117.0645,Sing and Swing Lodge
572,Salinopolis,BR,84.04,clear sky,-0.6136,-47.3561,Salinas Park Resort Maçarico AP101
580,Soyo,AO,78.85,overcast clouds,-6.1349,12.3689,Hotel Mpampa
587,Cravo Norte,CO,76.69,broken clouds,6.3017,-70.2041,Hotel Potosí Los Mirtos
603,Ishigaki,JP,78.93,few clouds,24.3448,124.1572,Hotel Peace Land Ishigakijima
604,Ariquemes,BR,83.84,broken clouds,-9.9133,-63.0408,Hotel Sol Nascente - Ariquemes - RO
606,Sao Felix Do Xingu,BR,81.28,overcast clouds,-6.6447,-51.995,Rio Xingu Camping
607,Fare,PF,78.37,clear sky,-16.7,-151.0167,Maitai Lapita Village Huahine
610,Gasa,PS,87.87,clear sky,31.5,34.4667,رابطة الفنانين الفلسطينيين
613,Si Sa Ket,TH,87.87,scattered clouds,14.8333,104.3333,ร้านค้า อัญชัน
614,Santa Rosa,PH,85.1,overcast clouds,14.3122,121.1114,Erlyn’s Sta Rosa City Home
617,Vieques,PR,80.01,few clouds,18.425,-65.8329,"The St. Regis Bahia Beach Resort, Puerto Rico"
619,Longyan,CN,76.78,light rain,25.1072,117.0225,Jinjiang Inn Longyan Zhongshan Road Pedestrian Street
620,Khash,IR,85.53,few clouds,28.2211,61.2158,دفتر پیشخوان دولت جمال زهی (خالد)
624,Faya,SA,82.51,overcast clouds,18.3851,42.4509,املاك خالد الشعشوع
626,Kuala Terengganu,MY,85.95,moderate rain,5.3302,103.1408,Hotel Grand Continental Kuala Terengganu (4 Star)
627,El Tigre,VE,76.37,scattered clouds,8.8875,-64.2454,Hotel Santa Cruz
628,Robertsport,LR,80.31,light rain,6.7533,-11.3686,Kwepunha Retreat
631,Iracoubo,GF,83.71,broken clouds,5.4802,-53.2011,Le Gîte d’Iracoubo
635,Sao Miguel Do Araguaia,BR,88.84,scattered clouds,-13.275,-50.1628,Hotel Executivo Palace
644,Shache,CN,83.71,clear sky,38.4167,77.2406,Delong Hotel
645,Korla,CN,76.03,clear sky,41.7597,86.1469,Gulisitan Hotel
653,Shahpur,IN,84.52,broken clouds,16.7,76.8333,Sai Deluxe Shahapur
654,Matara,LK,76.57,heavy intensity rain,5.9485,80.5353,Amaloh Boutique Resort
655,Diamantino,BR,86.09,clear sky,-14.4086,-56.4461,Hotel Delta
656,San Policarpo,PH,80.08,overcast clouds,12.1791,125.5072,Manong Aklan Resort
660,Banda Aceh,ID,78.19,overcast clouds,5.5577,95.3222,Sulthan Hotel International
661,Thai Binh,VN,84.2,few clouds,20.45,106.3333,Sweden Hotel
666,Katobu,ID,75.87,light rain,-4.9408,122.5276,La Ode Husein
667,Jinxiang,CN,77.79,light rain,27.4327,120.6062,Wolong Village
671,Cabo San Lucas,MX,80.51,few clouds,22.8909,-109.9124,Hotel Tesoro Los Cabos
675,Bani Walid,LY,84.34,clear sky,31.7566,13.9942,منزل الصابر أبوفانة
676,Aquiraz,BR,85.21,broken clouds,-3.9014,-38.3911,Pousada Rua Camurupim
677,Toledo,ES,75.31,overcast clouds,39.8333,-4.0,Hotel Carlos V Toledo
680,Tura,IN,77.9,scattered clouds,25.5198,90.2201,Hotel RIKMAN Continental
683,Savalou,BJ,84.92,overcast clouds,7.9281,1.9756,Hotel F&F
687,Manjacaze,MZ,78.69,overcast clouds,-24.7117,33.8828,Hotel Gani
689,Wewak,PG,77.54,light rain,-3.5534,143.6268,In Wewak Boutique Hotel
690,Uribia,CO,81.9,scattered clouds,11.7139,-72.266,Hotel Uribia
693,Coron,PH,79.93,overcast clouds,11.9986,120.2043,Coron Westown Resort
699,Palu,ID,77.14,overcast clouds,-0.8917,119.8707,Hotel Santika Palu
700,Vega De Alatorre,MX,77.86,overcast clouds,20.0333,-96.6333,El Polo Norte
704,Atambua,ID,75.13,few clouds,-9.1061,124.8925,Pastori 1 Jemaat Polycarpus
706,Lagunas,PE,75.72,scattered clouds,-5.2269,-75.6753,Hospedaje Eco
708,Vasai,IN,86.09,scattered clouds,19.47,72.8,Go Firne
